{"status": 0, "message": "ok", "results": [{"name": "\u6b66\u6c49\u5e02\u5149\u8c37\u7b2c\u4e00\u5c0f\u5b66", "location": {"lat": 30.495584, "lng": 114.423328}, "address": "\u6d2a\u5c71\u533a\u4e1c\u6e56\u65b0\u6280\u672f\u5f00\u53d1\u533a\u65b0\u7af9\u8def68\u53f7", "province": "\u6e56\u5317\u7701", "city": "\u6b66\u6c49\u5e02", "area": "\u6d2a\u5c71\u533a", "street_id": "2cc3c8e8403a83d64c2fdf9b", "telephone": "(027)87569625", "detail": 1, "uid": "2cc3c8e8403a83d64c2fdf9b"}, {"name": "\u6b66\u6c49\u5e02\u5149\u8c37\u7b2c\u4e8c\u5c0f\u5b66", "location": {"lat": 30.463511, "lng": 114.411858}, "address": "\u6e56\u5317\u7701\u6b66\u6c49\u5e02\u6d2a\u5c71\u533a\u5927\u5b66\u56ed\u8def1\u53f7", "province": "\u6e56\u5317\u7701", "city": "\u6b66\u6c49\u5e02", "area": "\u6d2a\u5c71\u533a", "street_id": "bb1d38e47a833e4e0c0a7029", "detail": 1, "uid": "bb1d38e47a833e4e0c0a7029"}, {"name": "\u6d2a\u5c71\u533a\u7b2c\u4e00\u5c0f\u5b66", "location": {"lat": 30.506249, "lng": 114.336801}, "address": "\u6e56\u5317\u7701\u6b66\u6c49\u5e02\u6d2a\u5c71\u533a\u6587\u660c\u8def38\u53f7", "province": "\u6e56\u5317\u7701", "city": "\u6b66\u6c49\u5e02", "area": "\u6d2a\u5c71\u533a", "street_id": "b3120a6cb1a6828f14948e98", "detail": 1, "uid": "b3120a6cb1a6828f14948e98"}, {"name": "\u6b66\u6c49\u5e02\u5149\u8c37\u7b2c\u5341\u5c0f\u5b66(\u6b66\u6c49\u5c0f\u5b66\u5149\u8c37\u5206\u6821)", "location": {"lat": 30.487539, "lng": 114.410877}, "address": "\u96c4\u5e84\u8def1\u53f7", "province": "\u6e56\u5317\u7701", "city": "\u6b66\u6c49\u5e02", "area": "\u6d2a\u5c71\u533a", "detail": 1, "uid": "cb2dbc1a5ec93f45deee8b75"}, {"name": "\u534e\u4e2d\u5e08\u8303\u5927\u5b66\u9644\u5c5e\u534e\u4fa8\u57ce\u5c0f\u5b66", "location": {"lat": 30.594985, "lng": 114.388293}, "address": "\u6e56\u5317\u7701\u6b66\u6c49\u5e02\u6d2a\u5c71\u533a\u6b22\u4e50\u5927\u9053166\u53f7", "province": "\u6e56\u5317\u7701", "city": "\u6b66\u6c49\u5e02", "area": "\u6d2a\u5c71\u533a", "street_id": "9ba393b7e0327e583913fd61", "telephone": "(027)88080105", "detail": 1, "uid": "9ba393b7e0327e583913fd61"}, {"name": "\u6b66\u6c49\u5e02\u5149\u8c37\u7b2c\u516d\u5c0f\u5b66", "location": {"lat": 30.478766, "lng": 114.418625}, "address": "\u6b66\u6c49\u5e02\u6d2a\u5c71\u533a\u5173\u5357\u8def6\u53f7", "province": "\u6e56\u5317\u7701", "city": "\u6b66\u6c49\u5e02", "area": "\u6d2a\u5c71\u533a", "street_id": "251374c94208cc3ca11de9ef", "detail": 1, "uid": "251374c94208cc3ca11de9ef"}, {"name": "\u6b66\u6c49\u5e02\u5149\u8c37\u7b2c\u516b\u5c0f\u5b66", "location": {"lat": 30.504534, "lng": 114.453857}, "address": "\u6e56\u5317\u7701\u6b66\u6c49\u5e02\u6d2a\u5c71\u533a\u5149\u8c37\u4e00\u8def5\u53f7", "province": "\u6e56\u5317\u7701", "city": "\u6b66\u6c49\u5e02", "area": "\u6d2a\u5c71\u533a", "street_id": "38e48037f145c74a373a7129", "telephone": "(027)87747071", "detail": 1, "uid": "38e48037f145c74a373a7129"}, {"name": "\u6d2a\u5c71\u533a\u7b2c\u4e00\u5c0f\u5b66\u4e66\u57ce\u8def\u5206\u6821", "location": {"lat": 30.509925, "lng": 114.347644}, "address": "\u6587\u79c0\u885712\u53f7", "province": "\u6e56\u5317\u7701", "city": "\u6b66\u6c49\u5e02", "area": "\u6d2a\u5c71\u533a", "detail": 1, "uid": "f4ec669890b6e1d617c8f629"}, {"name": "\u6b66\u6c49\u5e02\u9c81\u5df7\u5b9e\u9a8c\u5c0f\u5b66", "location": {"lat": 30.510556, "lng": 114.403036}, "address": "\u6d2a\u5c71\u533a\u9c81\u5df7\u8857\u5353\u8c79\u8def\u53cc\u5858\u5c0f\u533a", "province": "\u6e56\u5317\u7701", "city": "\u6b66\u6c49\u5e02", "area": "\u6d2a\u5c71\u533a", "street_id": "55fa2c0b22d13a2d1de9998c", "telephone": "(027)87525320", "detail": 1, "uid": "55fa2c0b22d13a2d1de9998c"}, {"name": "\u6d2a\u5c71\u533a\u9752\u83f1\u5c0f\u5b66", "location": {"lat": 30.462758, "lng": 114.273138}, "address": "\u6b66\u6c49\u5e02\u6d2a\u5c71\u533a\u9752\u83f1\u6865", "province": "\u6e56\u5317\u7701", "city": "\u6b66\u6c49\u5e02", "area": "\u6d2a\u5c71\u533a", "street_id": "f633606a04d6b54e0a69d99e", "telephone": "(027)88132916", "detail": 1, "uid": "f633606a04d6b54e0a69d99e"}]}